[
  { "code": "ATL", "name": "Atlanta Hartsfield–Jackson", "lat": 33.6407, "lon": -84.4277 },
  { "code": "LAX", "name": "Los Angeles", "lat": 33.9416, "lon": -118.4085 },
  { "code": "ORD", "name": "Chicago O'Hare", "lat": 41.9742, "lon": -87.9073 },
  { "code": "DFW", "name": "Dallas/Fort Worth", "lat": 32.8998, "lon": -97.0403 },
  { "code": "DEN", "name": "Denver", "lat": 39.8561, "lon": -104.6737 },
  { "code": "JFK", "name": "New York JFK", "lat": 40.6413, "lon": -73.7781 },
  { "code": "SFO", "name": "San Francisco", "lat": 37.6213, "lon": -122.3790 },
  { "code": "SEA", "name": "Seattle", "lat": 47.4502, "lon": -122.3088 },
  { "code": "LAS", "name": "Las Vegas", "lat": 36.0840, "lon": -115.1537 },
  { "code": "MCO", "name": "Orlando", "lat": 28.4312, "lon": -81.3081 },
  { "code": "PHX", "name": "Phoenix Sky Harbor", "lat": 33.4342, "lon": -112.0080 },
  { "code": "MIA", "name": "Miami", "lat": 25.7959, "lon": -80.2870 },
  { "code": "IAH", "name": "Houston IAH", "lat": 29.9902, "lon": -95.3368 },
  { "code": "CLT", "name": "Charlotte", "lat": 35.2140, "lon": -80.9431 },
  { "code": "BOS", "name": "Boston Logan", "lat": 42.3656, "lon": -71.0096 },
  { "code": "MSP", "name": "Minneapolis", "lat": 44.8848, "lon": -93.2223 },
  { "code": "DTW", "name": "Detroit Metro", "lat": 42.2162, "lon": -83.3554 },
  { "code": "PHL", "name": "Philadelphia", "lat": 39.8719, "lon": -75.2411 },
  { "code": "BWI", "name": "Baltimore/Washington", "lat": 39.1754, "lon": -76.6684 },
  { "code": "SLC", "name": "Salt Lake City", "lat": 40.7899, "lon": -111.9791 },
  { "code": "SAN", "name": "San Diego", "lat": 32.7338, "lon": -117.1933 },
  { "code": "TPA", "name": "Tampa", "lat": 27.9755, "lon": -82.5332 },
  { "code": "HOU", "name": "Houston Hobby", "lat": 29.6454, "lon": -95.2789 },
  { "code": "RDU", "name": "Raleigh-Durham", "lat": 35.8776, "lon": -78.7875 },
  { "code": "STL", "name": "St. Louis Lambert", "lat": 38.7487, "lon": -90.3700 },
  { "code": "AUS", "name": "Austin Bergstrom", "lat": 30.1945, "lon": -97.6699 },
  { "code": "SJC", "name": "San Jose", "lat": 37.3626, "lon": -121.9290 },
  { "code": "PDX", "name": "Portland", "lat": 45.5898, "lon": -122.5951 }
]
